{
  "success": true,
  "code": 0,
  "message": "",
  "data": {
    "total": 3219,
    "size": 10,
    "current": 1,
    "records": [
      {
        "id": 2,
        "cityId": 0,
        "parentId": 0,
        "zoneCode": "110000",
        "parentZoneCode": "",
        "zoneDescription": "",
        "province": "北京市",
        "city": "",
        "district": "",
        "name": "北京市",
        "levelName": "省级",
        "typeName": "直辖市",
        "shortName": "北京",
        "zipCode": "",
        "pinyinName": "bei,jing,shi",
        "spell": "BJS",
        "englishName": "Beijing",
        "lng": 116.407394,
        "lat": 39.904211,
        "govGarrison": "东城区",
        "govAddress": "北京市东城区正义路2号",
        "govWebsite": "http://www.beijing.gov.cn/",
        "populationSize": 1300,
        "areaCovered": "16412平方千米",
        "lbs": "",
        "createTime": 1525598561000,
        "updateTime": 1525598561000
      },
      {
        "id": 3,
        "cityId": 2,
        "parentId": 1,
        "zoneCode": "110101",
        "parentZoneCode": "110000",
        "zoneDescription": "010",
        "province": "北京市",
        "city": "北京市",
        "district": "东城区",
        "name": "东城区",
        "levelName": "县级",
        "typeName": "市辖区",
        "shortName": "东城",
        "zipCode": "100010",
        "pinyinName": "dong,cheng,qu",
        "spell": "DCQ",
        "englishName": "Dongcheng",
        "lng": 116.41649,
        "lat": 39.928341,
        "govGarrison": "景山街道",
        "govAddress": "北京市东城区育群胡同6号",
        "govWebsite": "http://www.bjdch.gov.cn/",
        "populationSize": 97,
        "areaCovered": "42平方千米",
        "lbs": "",
        "createTime": 1525598561000,
        "updateTime": 1525598561000
      },
      {
        "id": 4,
        "cityId": 3,
        "parentId": 1,
        "zoneCode": "110102",
        "parentZoneCode": "110000",
        "zoneDescription": "010",
        "province": "北京市",
        "city": "北京市",
        "district": "西城区",
        "name": "西城区",
        "levelName": "县级",
        "typeName": "市辖区",
        "shortName": "西城",
        "zipCode": "100032",
        "pinyinName": "xi,cheng,qu",
        "spell": "XCQ",
        "englishName": "Xicheng",
        "lng": 116.365873,
        "lat": 39.912235,
        "govGarrison": "金融街街道",
        "govAddress": "北京市西城区二龙路27号",
        "govWebsite": "http://www.bjxch.gov.cn/",
        "populationSize": 139,
        "areaCovered": "51平方千米",
        "lbs": "",
        "createTime": 1525598561000,
        "updateTime": 1525598561000
      },
      {
        "id": 5,
        "cityId": 4,
        "parentId": 1,
        "zoneCode": "110105",
        "parentZoneCode": "110000",
        "zoneDescription": "010",
        "province": "北京市",
        "city": "北京市",
        "district": "朝阳区",
        "name": "朝阳区",
        "levelName": "县级",
        "typeName": "市辖区",
        "shortName": "朝阳",
        "zipCode": "100020",
        "pinyinName": "chao,yang,qu",
        "spell": "CYQ",
        "englishName": "Chaoyang",
        "lng": 116.443205,
        "lat": 39.921506,
        "govGarrison": "朝外街道",
        "govAddress": "北京市朝阳区日坛北街33号",
        "govWebsite": "http://www.bjchy.gov.cn/",
        "populationSize": 198,
        "areaCovered": "455平方千米",
        "lbs": "",
        "createTime": 1525598561000,
        "updateTime": 1525598561000
      },
      {
        "id": 6,
        "cityId": 5,
        "parentId": 1,
        "zoneCode": "110106",
        "parentZoneCode": "110000",
        "zoneDescription": "010",
        "province": "北京市",
        "city": "北京市",
        "district": "丰台区",
        "name": "丰台区",
        "levelName": "县级",
        "typeName": "市辖区",
        "shortName": "丰台",
        "zipCode": "100071",
        "pinyinName": "feng,tai,qu",
        "spell": "FTQ",
        "englishName": "Fengtai",
        "lng": 116.287039,
        "lat": 39.858421,
        "govGarrison": "丰台街道",
        "govAddress": "北京市丰台区文体路2号",
        "govWebsite": "http://www.bjft.gov.cn/",
        "populationSize": 110,
        "areaCovered": "306平方千米",
        "lbs": "",
        "createTime": 1525598561000,
        "updateTime": 1525598561000
      },
      {
        "id": 7,
        "cityId": 6,
        "parentId": 1,
        "zoneCode": "110107",
        "parentZoneCode": "110000",
        "zoneDescription": "010",
        "province": "北京市",
        "city": "北京市",
        "district": "石景山区",
        "name": "石景山区",
        "levelName": "县级",
        "typeName": "市辖区",
        "shortName": "石景山",
        "zipCode": "100043",
        "pinyinName": "shi,jing,shan,qu",
        "spell": "SJSQ",
        "englishName": "Shijingshan",
        "lng": 116.222933,
        "lat": 39.906611,
        "govGarrison": "鲁谷街道",
        "govAddress": "北京市石景山区石景山路18号",
        "govWebsite": "http://www.bjsjs.gov.cn/",
        "populationSize": 37,
        "areaCovered": "84平方千米",
        "lbs": "",
        "createTime": 1525598561000,
        "updateTime": 1525598561000
      },
      {
        "id": 8,
        "cityId": 7,
        "parentId": 1,
        "zoneCode": "110108",
        "parentZoneCode": "110000",
        "zoneDescription": "010",
        "province": "北京市",
        "city": "北京市",
        "district": "海淀区",
        "name": "海淀区",
        "levelName": "县级",
        "typeName": "市辖区",
        "shortName": "海淀",
        "zipCode": "100089",
        "pinyinName": "hai,dian,qu",
        "spell": "HDQ",
        "englishName": "Haidian",
        "lng": 116.298262,
        "lat": 39.95993,
        "govGarrison": "海淀街道",
        "govAddress": "北京市海淀区长春桥路17号",
        "govWebsite": "http://www.bjhd.gov.cn/",
        "populationSize": 232,
        "areaCovered": "431平方千米",
        "lbs": "",
        "createTime": 1525598561000,
        "updateTime": 1525598561000
      },
      {
        "id": 9,
        "cityId": 8,
        "parentId": 1,
        "zoneCode": "110109",
        "parentZoneCode": "110000",
        "zoneDescription": "010",
        "province": "北京市",
        "city": "北京市",
        "district": "门头沟区",
        "name": "门头沟区",
        "levelName": "县级",
        "typeName": "市辖区",
        "shortName": "门头沟",
        "zipCode": "102300",
        "pinyinName": "men,tou,gou,qu",
        "spell": "MTGQ",
        "englishName": "Mentougou",
        "lng": 116.101719,
        "lat": 39.940338,
        "govGarrison": "大峪街道",
        "govAddress": "北京市门头沟区新桥大街36号",
        "govWebsite": "http://www.bjmtg.gov.cn/",
        "populationSize": 25,
        "areaCovered": "1451平方千米",
        "lbs": "",
        "createTime": 1525598561000,
        "updateTime": 1525598561000
      },
      {
        "id": 10,
        "cityId": 9,
        "parentId": 1,
        "zoneCode": "110111",
        "parentZoneCode": "110000",
        "zoneDescription": "010",
        "province": "北京市",
        "city": "北京市",
        "district": "房山区",
        "name": "房山区",
        "levelName": "县级",
        "typeName": "市辖区",
        "shortName": "房山",
        "zipCode": "102488",
        "pinyinName": "fang,shan,qu",
        "spell": "FSQ",
        "englishName": "Fangshan",
        "lng": 116.143486,
        "lat": 39.748823,
        "govGarrison": "拱辰街道",
        "govAddress": "北京市房山区政通路1号",
        "govWebsite": "http://www.bjfsh.gov.cn/",
        "populationSize": 78,
        "areaCovered": "1990平方千米",
        "lbs": "",
        "createTime": 1525598561000,
        "updateTime": 1525598561000
      },
      {
        "id": 11,
        "cityId": 10,
        "parentId": 1,
        "zoneCode": "110112",
        "parentZoneCode": "110000",
        "zoneDescription": "010",
        "province": "北京市",
        "city": "北京市",
        "district": "通州区",
        "name": "通州区",
        "levelName": "县级",
        "typeName": "市辖区",
        "shortName": "通州",
        "zipCode": "101149",
        "pinyinName": "tong,zhou,qu",
        "spell": "TZQ",
        "englishName": "Tongzhou",
        "lng": 116.656434,
        "lat": 39.909946,
        "govGarrison": "北苑街道",
        "govAddress": "北京市通州区新华北街161号",
        "govWebsite": "http://www.bjtzh.gov.cn/",
        "populationSize": 68,
        "areaCovered": "906平方千米",
        "lbs": "",
        "createTime": 1525598561000,
        "updateTime": 1525598561000
      }
    ],
    "pages": 322
  }
}
